Flight Simulation/Old Data 2/JAC_Eclipse_Summary.csv

"Penumbra Start Time (UTCG)","Umbra Start Time (UTCG)","Umbra Stop Time (UTCG)","Penumbra Stop Time (UTCG)","Obstruction","Duration (sec)","Max Percent Shadow","Time of Max Shadow (UTCG)"
26 Mar 2030 21:44:27.359,N/A,N/A,26 Mar 2030 21:45:40.896,"Europa",73.537,52.737539,26 Mar 2030 21:45:01.725
10 Aug 2031 10:03:35.725,10 Aug 2031 10:04:12.790,10 Aug 2031 10:05:54.349,10 Aug 2031 10:06:31.376,"Io",175.652,100.000000,10 Aug 2031 10:04:12.790
13 Aug 2031 08:11:21.604,13 Aug 2031 08:12:06.351,13 Aug 2031 08:26:04.982,13 Aug 2031 08:26:43.731,"Jupiter",922.127,100.000000,13 Aug 2031 08:12:06.351
16 Aug 2031 06:07:58.846,16 Aug 2031 06:08:29.099,16 Aug 2031 06:29:44.389,16 Aug 2031 06:30:08.747,"Jupiter",1329.901,100.000000,16 Aug 2031 06:08:29.099
19 Aug 2031 04:05:38.282,19 Aug 2031 04:06:02.789,19 Aug 2031 04:32:14.247,19 Aug 2031 04:32:32.957,"Jupiter",1614.675,100.000000,19 Aug 2031 04:06:02.789
22 Aug 2031 02:03:49.958,22 Aug 2031 02:04:11.138,22 Aug 2031 02:34:10.653,22 Aug 2031 02:34:26.130,"Jupiter",1836.173,100.000000,22 Aug 2031 02:04:11.138
25 Aug 2031 00:02:22.641,25 Aug 2031 00:02:41.567,25 Aug 2031 00:35:46.003,25 Aug 2031 00:35:59.321,"Jupiter",2016.680,100.000000,25 Aug 2031 00:02:41.567
27 Aug 2031 22:01:10.544,27 Aug 2031 22:01:27.804,27 Aug 2031 22:37:06.419,27 Aug 2031 22:37:18.162,"Jupiter",2167.619,100.000000,27 Aug 2031 22:01:27.804
30 Aug 2031 20:00:10.170,30 Aug 2031 20:00:26.127,30 Aug 2031 20:38:15.476,30 Aug 2031 20:38:26.005,"Jupiter",2295.835,100.000000,30 Aug 2031 20:00:26.127
2 Sep 2031 17:59:19.182,2 Sep 2031 17:59:34.080,2 Sep 2031 18:39:15.497,2 Sep 2031 18:39:25.051,"Jupiter",2405.869,100.000000,2 Sep 2031 17:59:34.080
5 Sep 2031 15:58:35.913,5 Sep 2031 15:58:49.925,5 Sep 2031 16:40:08.086,5 Sep 2031 16:40:16.839,"Jupiter",2500.926,100.000000,5 Sep 2031 15:58:49.925
8 Sep 2031 13:57:59.116,8 Sep 2031 13:58:12.369,8 Sep 2031 14:40:54.442,8 Sep 2031 14:41:02.524,"Jupiter",2583.408,100.000000,8 Sep 2031 13:58:12.369
11 Sep 2031 11:57:27.819,11 Sep 2031 11:57:40.410,11 Sep 2031 12:41:35.464,11 Sep 2031 12:41:42.966,"Jupiter",2655.147,100.000000,11 Sep 2031 11:57:40.410
14 Sep 2031 09:57:01.250,14 Sep 2031 09:57:13.261,14 Sep 2031 10:42:11.851,14 Sep 2031 10:42:18.852,"Jupiter",2717.602,100.000000,14 Sep 2031 09:57:13.261
17 Sep 2031 07:56:38.767,17 Sep 2031 07:56:50.259,17 Sep 2031 08:42:44.180,17 Sep 2031 08:42:50.744,"Jupiter",2771.977,100.000000,17 Sep 2031 07:56:50.259
20 Sep 2031 05:56:19.853,20 Sep 2031 05:56:30.879,20 Sep 2031 06:43:12.909,20 Sep 2031 06:43:19.085,"Jupiter",2819.232,100.000000,20 Sep 2031 05:56:30.879
23 Sep 2031 03:56:04.062,23 Sep 2031 03:56:14.660,23 Sep 2031 04:43:38.435,23 Sep 2031 04:43:44.265,"Jupiter",2860.203,100.000000,23 Sep 2031 03:56:14.660
26 Sep 2031 01:55:51.014,26 Sep 2031 01:56:01.222,26 Sep 2031 02:44:01.089,26 Sep 2031 02:44:06.608,"Jupiter",2895.594,100.000000,26 Sep 2031 01:56:01.222
28 Sep 2031 23:55:40.379,28 Sep 2031 23:55:50.228,29 Sep 2031 00:44:21.140,29 Sep 2031 00:44:26.380,"Jupiter",2926.001,100.000000,28 Sep 2031 23:55:50.228
1 Oct 2031 21:55:31.876,1 Oct 2031 21:55:41.393,1 Oct 2031 22:44:38.841,1 Oct 2031 22:44:43.829,"Jupiter",2951.953,100.000000,1 Oct 2031 21:55:41.393
4 Oct 2031 19:55:25.252,4 Oct 2031 19:55:34.460,4 Oct 2031 20:44:54.409,4 Oct 2031 20:44:59.166,"Jupiter",2973.914,100.000000,4 Oct 2031 19:55:34.460
7 Oct 2031 17:55:20.289,7 Oct 2031 17:55:29.209,7 Oct 2031 18:45:08.030,7 Oct 2031 18:45:12.578,"Jupiter",2992.289,100.000000,7 Oct 2031 17:55:29.209
10 Oct 2031 15:55:16.792,10 Oct 2031 15:55:25.442,10 Oct 2031 16:45:19.865,10 Oct 2031 16:45:24.221,"Jupiter",3007.429,100.000000,10 Oct 2031 15:55:25.442
13 Oct 2031 13:55:14.591,13 Oct 2031 13:55:22.985,13 Oct 2031 14:45:30.072,13 Oct 2031 14:45:34.252,"Jupiter",3019.661,100.000000,13 Oct 2031 13:55:22.985
16 Oct 2031 11:55:13.526,16 Oct 2031 11:55:21.682,16 Oct 2031 12:45:38.775,16 Oct 2031 12:45:42.793,"Jupiter",3029.268,100.000000,16 Oct 2031 11:55:21.682
19 Oct 2031 09:55:13.466,19 Oct 2031 09:55:21.397,19 Oct 2031 10:45:46.100,19 Oct 2031 10:45:49.970,"Jupiter",3036.504,100.000000,19 Oct 2031 09:55:21.397
22 Oct 2031 07:55:14.280,22 Oct 2031 07:55:21.997,22 Oct 2031 08:45:52.160,22 Oct 2031 08:45:55.893,"Jupiter",3041.613,100.000000,22 Oct 2031 07:55:21.997
25 Oct 2031 05:55:15.860,25 Oct 2031 05:55:23.373,25 Oct 2031 06:45:57.038,25 Oct 2031 06:46:00.644,"Jupiter",3044.784,100.000000,25 Oct 2031 05:55:23.373
28 Oct 2031 03:55:18.103,28 Oct 2031 03:55:25.425,28 Oct 2031 04:46:00.837,28 Oct 2031 04:46:04.327,"Jupiter",3046.223,100.000000,28 Oct 2031 03:55:25.425
31 Oct 2031 01:55:20.922,31 Oct 2031 01:55:28.056,31 Oct 2031 02:46:03.635,31 Oct 2031 02:46:07.017,"Jupiter",3046.095,100.000000,31 Oct 2031 01:55:28.056
2 Nov 2031 23:55:24.235,2 Nov 2031 23:55:31.193,3 Nov 2031 00:46:05.506,3 Nov 2031 00:46:08.788,"Jupiter",3044.553,100.000000,2 Nov 2031 23:55:31.193
5 Nov 2031 21:55:27.961,5 Nov 2031 21:55:34.751,5 Nov 2031 22:46:06.524,5 Nov 2031 22:46:09.712,"Jupiter",3041.752,100.000000,5 Nov 2031 21:55:34.751
8 Nov 2031 19:55:32.037,8 Nov 2031 19:55:38.666,8 Nov 2031 20:46:06.736,8 Nov 2031 20:46:09.839,"Jupiter",3037.802,100.000000,8 Nov 2031 19:55:38.666
11 Nov 2031 17:55:36.399,11 Nov 2031 17:55:42.874,11 Nov 2031 18:46:06.215,11 Nov 2031 18:46:09.240,"Jupiter",3032.842,100.000000,11 Nov 2031 17:55:42.874
14 Nov 2031 15:55:40.996,14 Nov 2031 15:55:47.323,14 Nov 2031 16:46:05.010,14 Nov 2031 16:46:07.957,"Jupiter",3026.961,100.000000,14 Nov 2031 15:55:47.323
17 Nov 2031 13:55:45.779,17 Nov 2031 13:55:51.964,17 Nov 2031 14:46:03.168,17 Nov 2031 14:46:06.046,"Jupiter",3020.267,100.000000,17 Nov 2031 13:55:51.964
20 Nov 2031 11:55:50.695,20 Nov 2031 11:55:56.744,20 Nov 2031 12:46:00.740,20 Nov 2031 12:46:03.554,"Jupiter",3012.859,100.000000,20 Nov 2031 11:55:56.744
23 Nov 2031 09:55:55.707,23 Nov 2031 09:56:01.624,23 Nov 2031 10:45:57.754,23 Nov 2031 10:46:00.508,"Jupiter",3004.801,100.000000,23 Nov 2031 09:56:01.624
26 Nov 2031 07:56:00.773,26 Nov 2031 07:56:06.564,26 Nov 2031 08:45:54.263,26 Nov 2031 08:45:56.962,"Jupiter",2996.189,100.000000,26 Nov 2031 07:56:06.564
29 Nov 2031 05:56:05.868,29 Nov 2031 05:56:11.537,29 Nov 2031 06:45:50.297,29 Nov 2031 06:45:52.944,"Jupiter",2987.075,100.000000,29 Nov 2031 05:56:11.537
2 Dec 2031 03:56:10.954,2 Dec 2031 03:56:16.505,2 Dec 2031 04:45:45.890,2 Dec 2031 04:45:48.489,"Jupiter",2977.535,100.000000,2 Dec 2031 03:56:16.505
5 Dec 2031 01:56:16.004,5 Dec 2031 01:56:21.442,5 Dec 2031 02:45:41.074,5 Dec 2031 02:45:43.628,"Jupiter",2967.624,100.000000,5 Dec 2031 01:56:21.442
7 Dec 2031 23:56:20.993,7 Dec 2031 23:56:26.321,8 Dec 2031 00:45:35.877,8 Dec 2031 00:45:38.389,"Jupiter",2957.397,100.000000,7 Dec 2031 23:56:26.321
10 Dec 2031 21:56:25.895,10 Dec 2031 21:56:31.117,10 Dec 2031 22:45:30.329,10 Dec 2031 22:45:32.802,"Jupiter",2946.907,100.000000,10 Dec 2031 21:56:31.117
10 Dec 2031 22:39:19.106,N/A,N/A,10 Dec 2031 22:42:10.228,"Callisto",171.122,25.878300,10 Dec 2031 22:40:37.043
13 Dec 2031 19:56:30.698,13 Dec 2031 19:56:35.818,13 Dec 2031 20:45:24.448,13 Dec 2031 20:45:26.884,"Jupiter",2936.187,100.000000,13 Dec 2031 19:56:35.818
16 Dec 2031 17:56:35.375,16 Dec 2031 17:56:40.395,16 Dec 2031 18:45:18.263,16 Dec 2031 18:45:20.666,"Jupiter",2925.291,100.000000,16 Dec 2031 17:56:40.395
19 Dec 2031 15:56:39.910,19 Dec 2031 15:56:44.836,19 Dec 2031 16:45:11.799,19 Dec 2031 16:45:14.171,"Jupiter",2914.261,100.000000,19 Dec 2031 15:56:44.836
22 Dec 2031 13:56:44.295,22 Dec 2031 13:56:49.128,22 Dec 2031 14:45:05.070,22 Dec 2031 14:45:07.414,"Jupiter",2903.119,100.000000,22 Dec 2031 13:56:49.128
25 Dec 2031 11:56:48.506,25 Dec 2031 11:56:53.249,25 Dec 2031 12:44:58.093,25 Dec 2031 12:45:00.409,"Jupiter",2891.903,100.000000,25 Dec 2031 11:56:53.249
28 Dec 2031 09:56:52.541,28 Dec 2031 09:56:57.198,28 Dec 2031 10:44:50.895,28 Dec 2031 10:44:53.188,"Jupiter",2880.647,100.000000,28 Dec 2031 09:56:57.198
31 Dec 2031 07:56:56.381,31 Dec 2031 07:57:00.953,31 Dec 2031 08:44:43.489,31 Dec 2031 08:44:45.757,"Jupiter",2869.375,100.000000,31 Dec 2031 07:57:00.953
3 Jan 2032 05:57:00.024,3 Jan 2032 05:57:04.515,3 Jan 2032 06:44:35.892,3 Jan 2032 06:44:38.138,"Jupiter",2858.113,100.000000,3 Jan 2032 05:57:04.515
6 Jan 2032 03:57:03.457,6 Jan 2032 03:57:07.868,6 Jan 2032 04:44:28.120,6 Jan 2032 04:44:30.345,"Jupiter",2846.889,100.000000,6 Jan 2032 03:57:07.868
9 Jan 2032 01:57:06.670,9 Jan 2032 01:57:11.005,9 Jan 2032 02:44:20.182,9 Jan 2032 02:44:22.389,"Jupiter",2835.719,100.000000,9 Jan 2032 01:57:11.005
11 Jan 2032 23:57:09.665,11 Jan 2032 23:57:13.925,12 Jan 2032 00:44:12.100,12 Jan 2032 00:44:14.290,"Jupiter",2824.625,100.000000,11 Jan 2032 23:57:13.925
14 Jan 2032 21:57:12.428,14 Jan 2032 21:57:16.618,14 Jan 2032 22:44:03.877,14 Jan 2032 22:44:06.052,"Jupiter",2813.624,100.000000,14 Jan 2032 21:57:16.618
17 Jan 2032 19:57:14.959,17 Jan 2032 19:57:19.079,17 Jan 2032 20:43:55.533,17 Jan 2032 20:43:57.694,"Jupiter",2802.735,100.000000,17 Jan 2032 19:57:19.079
20 Jan 2032 17:57:17.256,20 Jan 2032 17:57:21.306,20 Jan 2032 18:43:47.078,20 Jan 2032 18:43:49.228,"Jupiter",2791.972,100.000000,20 Jan 2032 17:57:21.306
23 Jan 2032 15:57:19.308,23 Jan 2032 15:57:23.292,23 Jan 2032 16:43:38.521,23 Jan 2032 16:43:40.657,"Jupiter",2781.349,100.000000,23 Jan 2032 15:57:23.292
26 Jan 2032 13:57:21.122,26 Jan 2032 13:57:25.042,26 Jan 2032 14:43:29.874,26 Jan 2032 14:43:32.000,"Jupiter",2770.877,100.000000,26 Jan 2032 13:57:25.042
29 Jan 2032 11:57:22.687,29 Jan 2032 11:57:26.546,29 Jan 2032 12:43:21.148,29 Jan 2032 12:43:23.267,"Jupiter",2760.580,100.000000,29 Jan 2032 11:57:26.546
1 Feb 2032 09:57:24.009,1 Feb 2032 09:57:27.806,1 Feb 2032 10:43:12.349,1 Feb 2032 10:43:14.456,"Jupiter",2750.447,100.000000,1 Feb 2032 09:57:27.806
4 Feb 2032 07:57:25.081,4 Feb 2032 07:57:28.819,4 Feb 2032 08:43:03.490,4 Feb 2032 08:43:05.589,"Jupiter",2740.508,100.000000,4 Feb 2032 07:57:28.819
7 Feb 2032 05:57:25.903,7 Feb 2032 05:57:29.584,7 Feb 2032 06:42:54.578,7 Feb 2032 06:42:56.671,"Jupiter",2730.767,100.000000,7 Feb 2032 05:57:29.584
10 Feb 2032 03:57:26.482,10 Feb 2032 03:57:30.106,10 Feb 2032 04:42:45.621,10 Feb 2032 04:42:47.708,"Jupiter",2721.227,100.000000,10 Feb 2032 03:57:30.106
13 Feb 2032 01:57:26.810,13 Feb 2032 01:57:30.378,13 Feb 2032 02:42:36.631,13 Feb 2032 02:42:38.713,"Jupiter",2711.904,100.000000,13 Feb 2032 01:57:30.378
15 Feb 2032 23:57:26.887,15 Feb 2032 23:57:30.407,16 Feb 2032 00:42:27.610,16 Feb 2032 00:42:29.686,"Jupiter",2702.799,100.000000,15 Feb 2032 23:57:30.407
18 Feb 2032 21:57:26.722,18 Feb 2032 21:57:30.188,18 Feb 2032 22:42:18.566,18 Feb 2032 22:42:20.641,"Jupiter",2693.919,100.000000,18 Feb 2032 21:57:30.188
21 Feb 2032 19:57:26.306,21 Feb 2032 19:57:29.723,21 Feb 2032 20:42:09.513,21 Feb 2032 20:42:11.586,"Jupiter",2685.280,100.000000,21 Feb 2032 19:57:29.723
24 Feb 2032 17:57:25.651,24 Feb 2032 17:57:29.019,24 Feb 2032 18:42:00.449,24 Feb 2032 18:42:02.520,"Jupiter",2676.869,100.000000,24 Feb 2032 17:57:29.019
27 Feb 2032 15:57:24.748,27 Feb 2032 15:57:28.072,27 Feb 2032 16:41:51.387,27 Feb 2032 16:41:53.458,"Jupiter",2668.710,100.000000,27 Feb 2032 15:57:28.072
1 Mar 2032 13:57:23.605,1 Mar 2032 13:57:26.881,1 Mar 2032 14:41:42.336,1 Mar 2032 14:41:44.406,"Jupiter",2660.801,100.000000,1 Mar 2032 13:57:26.881
4 Mar 2032 11:57:22.227,4 Mar 2032 11:57:25.457,4 Mar 2032 12:41:33.292,4 Mar 2032 12:41:35.368,"Jupiter",2653.141,100.000000,4 Mar 2032 11:57:25.457
7 Mar 2032 09:57:20.606,7 Mar 2032 09:57:23.793,7 Mar 2032 10:41:24.272,7 Mar 2032 10:41:26.345,"Jupiter",2645.739,100.000000,7 Mar 2032 09:57:23.793
10 Mar 2032 07:57:18.755,10 Mar 2032 07:57:21.900,10 Mar 2032 08:41:15.277,10 Mar 2032 08:41:17.354,"Jupiter",2638.599,100.000000,10 Mar 2032 07:57:21.900
13 Mar 2032 05:57:16.671,13 Mar 2032 05:57:19.772,13 Mar 2032 06:41:06.314,13 Mar 2032 06:41:08.392,"Jupiter",2631.721,100.000000,13 Mar 2032 05:57:19.772
16 Mar 2032 03:57:14.356,16 Mar 2032 03:57:17.420,16 Mar 2032 04:40:57.389,16 Mar 2032 04:40:59.470,"Jupiter",2625.115,100.000000,16 Mar 2032 03:57:17.420
19 Mar 2032 01:57:11.812,19 Mar 2032 01:57:14.837,19 Mar 2032 02:40:48.510,19 Mar 2032 02:40:50.595,"Jupiter",2618.783,100.000000,19 Mar 2032 01:57:14.837
21 Mar 2032 23:57:09.045,21 Mar 2032 23:57:12.032,22 Mar 2032 00:40:39.676,22 Mar 2032 00:40:41.769,"Jupiter",2612.724,100.000000,21 Mar 2032 23:57:12.032
24 Mar 2032 21:57:06.061,24 Mar 2032 21:57:09.011,24 Mar 2032 22:40:30.901,24 Mar 2032 22:40:32.996,"Jupiter",2606.936,100.000000,24 Mar 2032 21:57:09.011
27 Mar 2032 19:57:02.854,27 Mar 2032 19:57:05.771,27 Mar 2032 20:40:22.185,27 Mar 2032 20:40:24.286,"Jupiter",2601.432,100.000000,27 Mar 2032 19:57:05.771
30 Mar 2032 17:56:59.434,30 Mar 2032 17:57:02.314,30 Mar 2032 18:40:13.532,30 Mar 2032 18:40:15.639,"Jupiter",2596.205,100.000000,30 Mar 2032 17:57:02.314
2 Apr 2032 15:56:55.803,2 Apr 2032 15:56:58.649,2 Apr 2032 16:40:04.955,2 Apr 2032 16:40:07.069,"Jupiter",2591.266,100.000000,2 Apr 2032 15:56:58.649
5 Apr 2032 13:56:51.963,5 Apr 2032 13:56:54.776,5 Apr 2032 14:39:56.449,5 Apr 2032 14:39:58.571,"Jupiter",2586.608,100.000000,5 Apr 2032 13:56:54.776
8 Apr 2032 11:56:47.918,8 Apr 2032 11:56:50.699,8 Apr 2032 12:39:48.028,8 Apr 2032 12:39:50.159,"Jupiter",2582.240,100.000000,8 Apr 2032 11:56:50.699
11 Apr 2032 09:56:43.672,11 Apr 2032 09:56:46.424,11 Apr 2032 10:39:39.696,11 Apr 2032 10:39:41.835,"Jupiter",2578.164,100.000000,11 Apr 2032 09:56:46.424
14 Apr 2032 07:56:39.227,14 Apr 2032 07:56:41.949,14 Apr 2032 08:39:31.454,14 Apr 2032 08:39:33.600,"Jupiter",2574.373,100.000000,14 Apr 2032 07:56:41.949
17 Apr 2032 05:56:34.591,17 Apr 2032 05:56:37.279,17 Apr 2032 06:39:23.306,17 Apr 2032 06:39:25.465,"Jupiter",2570.874,100.000000,17 Apr 2032 05:56:37.279
20 Apr 2032 03:56:29.756,20 Apr 2032 03:56:32.417,20 Apr 2032 04:39:15.268,20 Apr 2032 04:39:17.433,"Jupiter",2567.676,100.000000,20 Apr 2032 03:56:32.417
23 Apr 2032 01:56:24.738,23 Apr 2032 01:56:27.370,23 Apr 2032 02:39:07.328,23 Apr 2032 02:39:09.509,"Jupiter",2564.771,100.000000,23 Apr 2032 01:56:27.370
25 Apr 2032 23:56:19.535,25 Apr 2032 23:56:22.144,26 Apr 2032 00:38:59.506,26 Apr 2032 00:39:01.698,"Jupiter",2562.164,100.000000,25 Apr 2032 23:56:22.144
28 Apr 2032 21:56:14.151,28 Apr 2032 21:56:16.730,28 Apr 2032 22:38:51.801,28 Apr 2032 22:38:54.005,"Jupiter",2559.854,100.000000,28 Apr 2032 21:56:16.730
1 May 2032 19:56:08.590,1 May 2032 19:56:11.144,1 May 2032 20:38:44.218,1 May 2032 20:38:46.436,"Jupiter",2557.846,100.000000,1 May 2032 19:56:11.144
4 May 2032 17:56:02.859,4 May 2032 17:56:05.387,4 May 2032 18:38:36.764,4 May 2032 18:38:39.000,"Jupiter",2556.141,100.000000,4 May 2032 17:56:05.387
7 May 2032 15:55:56.952,7 May 2032 15:55:59.456,7 May 2032 16:38:29.443,7 May 2032 16:38:31.688,"Jupiter",2554.736,100.000000,7 May 2032 15:55:59.456
10 May 2032 13:55:50.882,10 May 2032 13:55:53.367,10 May 2032 14:38:22.259,10 May 2032 14:38:24.522,"Jupiter",2553.640,100.000000,10 May 2032 13:55:53.367
13 May 2032 11:55:44.652,13 May 2032 11:55:47.108,13 May 2032 12:38:15.222,13 May 2032 12:38:17.494,"Jupiter",2552.842,100.000000,13 May 2032 11:55:47.108
16 May 2032 09:55:38.258,16 May 2032 09:55:40.694,16 May 2032 10:38:08.327,16 May 2032 10:38:10.623,"Jupiter",2552.364,100.000000,16 May 2032 09:55:40.694
19 May 2032 07:55:31.715,19 May 2032 07:55:34.129,19 May 2032 08:38:01.593,19 May 2032 08:38:03.897,"Jupiter",2552.183,100.000000,19 May 2032 07:55:34.129
22 May 2032 05:55:25.017,22 May 2032 05:55:27.410,22 May 2032 06:37:55.013,22 May 2032 06:37:57.338,"Jupiter",2552.321,100.000000,22 May 2032 05:55:27.410
25 May 2032 03:55:18.169,25 May 2032 03:55:20.544,25 May 2032 04:37:48.598,25 May 2032 04:37:50.939,"Jupiter",2552.770,100.000000,25 May 2032 03:55:20.544
28 May 2032 01:55:11.182,28 May 2032 01:55:13.535,28 May 2032 02:37:42.353,28 May 2032 02:37:44.711,"Jupiter",2553.530,100.000000,28 May 2032 01:55:13.535
30 May 2032 23:55:04.050,30 May 2032 23:55:06.384,31 May 2032 00:37:36.284,31 May 2032 00:37:38.663,"Jupiter",2554.614,100.000000,30 May 2032 23:55:06.384
2 Jun 2032 21:54:56.783,2 Jun 2032 21:54:59.102,2 Jun 2032 22:37:30.389,2 Jun 2032 22:37:32.790,"Jupiter",2556.006,100.000000,2 Jun 2032 21:54:59.102
5 Jun 2032 19:54:49.388,5 Jun 2032 19:54:51.686,5 Jun 2032 20:37:24.688,5 Jun 2032 20:37:27.108,"Jupiter",2557.721,100.000000,5 Jun 2032 19:54:51.686
8 Jun 2032 17:54:41.857,8 Jun 2032 17:54:44.141,8 Jun 2032 18:37:19.172,8 Jun 2032 18:37:21.617,"Jupiter",2559.760,100.000000,8 Jun 2032 17:54:44.141
11 Jun 2032 15:54:34.204,11 Jun 2032 15:54:36.468,11 Jun 2032 16:37:13.856,11 Jun 2032 16:37:16.323,"Jupiter",2562.119,100.000000,11 Jun 2032 15:54:36.468
14 Jun 2032 13:54:26.432,14 Jun 2032 13:54:28.679,14 Jun 2032 14:37:08.746,14 Jun 2032 14:37:11.233,"Jupiter",2564.800,100.000000,14 Jun 2032 13:54:28.679
17 Jun 2032 11:54:18.541,17 Jun 2032 11:54:20.774,17 Jun 2032 12:37:03.839,17 Jun 2032 12:37:06.348,"Jupiter",2567.807,100.000000,17 Jun 2032 11:54:20.774
20 Jun 2032 09:54:10.535,20 Jun 2032 09:54:12.751,20 Jun 2032 10:36:59.151,20 Jun 2032 10:37:01.684,"Jupiter",2571.149,100.000000,20 Jun 2032 09:54:12.751
23 Jun 2032 07:54:02.420,23 Jun 2032 07:54:04.621,23 Jun 2032 08:36:54.679,23 Jun 2032 08:36:57.239,"Jupiter",2574.819,100.000000,23 Jun 2032 07:54:04.621
26 Jun 2032 05:53:54.199,26 Jun 2032 05:53:56.386,26 Jun 2032 06:36:50.438,26 Jun 2032 06:36:53.018,"Jupiter",2578.820,100.000000,26 Jun 2032 05:53:56.386
29 Jun 2032 03:53:45.875,29 Jun 2032 03:53:48.052,29 Jun 2032 04:36:46.426,29 Jun 2032 04:36:49.036,"Jupiter",2583.161,100.000000,29 Jun 2032 03:53:48.052

